{
  "accommodation": {
    "name": "담양힐링파크 새연리조트 3호점",
    "address": "전남 담양군 봉산면 탄금길 9-26",
    "lat": 35.2850,
    "lng": 126.9650,
    "url": "https://damyangnhealingparksaeyeon.bizw.kr/"
  },
  "areas": {
    "bongsan": {"lat": 35.2850, "lng": 126.9650, "name": "봉산면"},
    "eup": {"lat": 35.3210, "lng": 126.9880, "name": "담양읍"},
    "eup_river": {"lat": 35.3225, "lng": 126.9850, "name": "담양읍(천변)"},
    "eup_market": {"lat": 35.3200, "lng": 126.9840, "name": "담양읍(시장)"},
    "eup_edge": {"lat": 35.3050, "lng": 126.9850, "name": "담양읍(외곽)"},
    "meta": {"lat": 35.3245, "lng": 127.0050, "name": "메타프로방스"},
    "daejeon": {"lat": 35.2650, "lng": 126.9100, "name": "대전면"},
    "yong": {"lat": 35.3990, "lng": 126.9760, "name": "용면"},
    "subuk": {"lat": 35.3050, "lng": 126.9350, "name": "수북면"},
    "goseo": {"lat": 35.2150, "lng": 126.9800, "name": "고서면"},
    "changpyeong": {"lat": 35.2450, "lng": 127.0150, "name": "창평면"},
    "wolsan": {"lat": 35.3400, "lng": 126.9500, "name": "월산면"},
    "mujeong": {"lat": 35.3400, "lng": 127.0500, "name": "무정면"},
    "geumseong": {"lat": 35.3550, "lng": 127.0350, "name": "금성면"},
    "gasam": {"lat": 35.2800, "lng": 126.9200, "name": "가사문학면"}
  },
  "venues": [
    {"id": 1, "category": "cafe", "name": "베비에르 담양점", "feature": "마왕파이, 대형 베이커리", "address": "담양읍 죽향대로 1300", "area": "eup_edge", "url": "https://naver.me/5N1p0aFM", "hours": "11:00~20:00", "subcategory": "베이커리", "note": "빵 종류 다양, 아침 픽업 유리"},
    {"id": 2, "category": "cafe", "name": "오프더커프", "feature": "비건 소금빵, 대형 로스터리", "address": "대전면 추성1로 425-9", "area": "daejeon", "url": "https://www.instagram.com/offthecuff_cafe/", "hours": "11:00~20:30(LO 20:00)", "subcategory": "소금빵"},
    {"id": 3, "category": "cafe", "name": "카페 버트", "feature": "소금빵 맛집, 붉은 벽돌 외관", "address": "담양읍 추성로 1186", "area": "eup", "url": "https://www.instagram.com/cafe.6ert/", "hours": "11:00~19:00", "subcategory": "소금빵"},
    {"id": 4, "category": "cafe", "name": "카페 더몽", "feature": "매일 아침 굽는 소금빵", "address": "담양읍 천변1길 32", "area": "eup_river", "url": "https://www.instagram.com/cafe_themong/", "hours": "10:30~18:00", "subcategory": "소금빵", "note": "국수거리·관방제림 동선 연계"},
    {"id": 5, "category": "cafe", "name": "들꽃숲", "feature": "봉산면 대형 카페, 정원", "address": "봉산면 송강정로 200", "area": "bongsan", "url": "https://www.instagram.com/deulkkotsup/", "hours": "10:00~21:00", "subcategory": "대형카페", "note": "숙소와 가까움"},
    {"id": 6, "category": "cafe", "name": "담다", "feature": "담양읍 대형 카페", "address": "담양읍 월광로 41", "area": "eup", "url": "https://www.instagram.com/damda_coffee/", "hours": "10:00~21:00", "subcategory": "대형카페", "note": "넓은 좌석, 단체 대화 용이"},
    {"id": 7, "category": "cafe", "name": "미각", "feature": "한옥 감성, 담양양갱 선물", "address": "담양읍 완동길 9-9", "area": "eup", "url": "https://www.instagram.com/cafe__migak/", "hours": "11:00~21:00", "subcategory": "한옥카페", "note": "선물/기념품 해결 가능"},
    {"id": 8, "category": "cafe", "name": "수비니어", "feature": "대형 갤러리카페", "address": "담양읍 객사리 181", "area": "eup", "url": "https://tabling.co.kr/place/677cd8e466de5f06989551e8", "hours": "10:30~20:30", "subcategory": "대형카페", "note": "주차 공간 여유"},
    {"id": 9, "category": "cafe", "name": "앰퍼샌드", "feature": "시장 3층 대형카페", "address": "담양읍 담주4길 40 3층", "area": "eup_market", "url": "https://www.instagram.com/cafe.ampersand/", "hours": "10:00~18:00", "subcategory": "대형카페", "note": "국수거리·관방제림 근처"},
    {"id": 10, "category": "cafe", "name": "칠링스", "feature": "빈티지 대형 좌석, 소금빵", "address": "담양읍 객사2길 14", "area": "eup", "url": "https://www.instagram.com/chillings_coffeeworks", "hours": "11:00~21:00", "subcategory": "대형카페"},
    {"id": 12, "category": "cafe", "name": "시노유", "feature": "조용한 도예 감성, 노키즈존", "address": "무정면 동산리 74", "area": "mujeong", "url": "https://www.instagram.com/seongcheol1028/", "hours": "", "subcategory": "북카페"},
    {"id": 13, "category": "cafe", "name": "담양LP음악충전소", "feature": "LP 음악 감상, 실내형", "address": "담양읍 담주리 87-5", "area": "eup", "url": "https://www.instagram.com/lpmusic.damyang/", "hours": "11:00~19:00", "subcategory": "LP카페", "note": "비/눈 올 때 안전"},
    {"id": 14, "category": "cafe", "name": "어텐션 플리즈", "feature": "미국 하이틴 감성, 카이막", "address": "금성면 금성산성길 271", "area": "geumseong", "url": "https://www.instagram.com/attentionplzzz", "hours": "11:00~20:00", "subcategory": "감성카페"},
    {"id": 15, "category": "cafe", "name": "카페 더 하루", "feature": "상어 수족관 대형카페", "address": "금성면 담순로 33", "area": "geumseong", "url": "https://www.instagram.com/cafe_theharu/", "hours": "10:00~21:00", "subcategory": "체험카페"},
        {"id": 18, "category": "cafe", "name": "콜로세움", "feature": "수북면 대형 베이커리, 웅장한 외관", "address": "수북면 용구동2길 33", "area": "subuk", "url": "https://naver.me/Fc5UXd9C", "hours": "10:00~20:30", "subcategory": "베이커리", "note": "주차 편리"},
    {"id": 19, "category": "cafe", "name": "플레이펫", "feature": "실내동물원 체험", "address": "담양읍 죽향대로 1290", "area": "eup_edge", "url": "https://www.instagram.com/birdmong/", "hours": "", "subcategory": "체험"},
    {"id": 20, "category": "cafe", "name": "아키올로지", "feature": "북카페 컨셉", "address": "월산면 월산리 493-2", "area": "wolsan", "url": "https://www.instagram.com/cafe.archaeology/", "hours": "10:30~21:00", "subcategory": "북카페"},
    {"id": 21, "category": "cafe", "name": "사와로베이커리", "feature": "선인장 컨셉 베이커리", "address": "가사문학면 가사문학로 691", "area": "gasam", "url": "https://www.instagram.com/saguaro_bakery/", "hours": "", "subcategory": "베이커리", "note": "광주호 호수생태원 인근"},
    {"id": 22, "category": "cafe", "name": "소예르", "feature": "제주 감성 인테리어", "address": "담양읍 남산리 384", "area": "meta", "url": "https://naver.me/xJiBlPZ8", "hours": "11:00~18:00(목 휴무)", "subcategory": "카페", "note": "메타프로방스 인근"},
    {"id": 23, "category": "cafe", "name": "명지원", "feature": "한옥 정원형 카페", "address": "고서면 덕촌길 37", "area": "goseo", "url": "https://www.instagram.com/myeong_ji_won/", "hours": "10:00~19:00", "subcategory": "정원카페"},
        {"id": 25, "category": "cafe", "name": "카페 하녹", "feature": "넓은 잔디마당, 한옥", "address": "창평면 창평현로 714-40", "area": "changpyeong", "url": "https://www.instagram.com/cafe.ha_nok/", "hours": "11:00~19:00(화 휴무)", "subcategory": "한옥카페", "note": "창평 슬로시티 권역"},
    {"id": 26, "category": "cafe", "name": "담빛예술창고", "feature": "전시+카페, 파이프오르간", "address": "담양읍 객사7길 75", "area": "eup_market", "url": "https://www.instagram.com/daily_dambit/", "hours": "10:00~18:00(월 휴무)", "subcategory": "문화카페", "note": "관방제림 산책 후 방문 최적"},
        {"id": 28, "category": "cafe", "name": "심플레이스", "feature": "봉산면 대형 좌석", "address": "봉산면 송강정로 128", "area": "bongsan", "url": "https://www.instagram.com/simplace_bakerycafe/", "hours": "", "subcategory": "베이커리", "note": "방문 전 전화 확인 필요"},
    {"id": 29, "category": "cafe", "name": "솔로투", "feature": "에스프레소 바/오마카세", "address": "담양읍 담양88로 364", "area": "meta", "url": "https://www.instagram.com/solotu_damyang/", "hours": "08:00~22:00", "subcategory": "스페셜티", "note": "커피 매니아 추천"},
    {"id": 30, "category": "cafe", "name": "프룩 커피", "feature": "힙한 감성 실내 공간", "address": "수북면 태왕1로 105-6", "area": "subuk", "url": "https://www.instagram.com/fruk_coffee/", "hours": "11:00~18:30(수,목 휴무)", "subcategory": "카페"},
        {"id": 32, "category": "cafe", "name": "다미담", "feature": "갤러리 카페", "address": "담양읍 담주4길 24-46", "area": "eup_market", "url": "https://triple.guide/restaurants/d98d8415-f0bf-4f90-b616-bc707e221c50", "hours": "11:00~21:00", "subcategory": "갤러리카페", "note": "다미담 예술구 내"},
    {"id": 33, "category": "cafe", "name": "카페 밀", "feature": "대형 베이커리, 소금빵류", "address": "수북면 한수동로 578", "area": "subuk", "url": "https://www.instagram.com/mll_coffee_co/", "hours": "11:00~20:00", "subcategory": "소금빵"},
    {"id": 34, "category": "cafe", "name": "카페 이음", "feature": "시즌별 소금빵 (두바이 등)", "address": "고서면 고읍리 715-1", "area": "goseo", "url": "https://www.instagram.com/eum_cafe_/", "hours": "", "subcategory": "소금빵"},
    {"id": 50, "category": "cafe", "name": "리핸즈 베이커리 카페", "feature": "새로 오픈, 베이커리", "address": "담양읍", "area": "eup", "url": "https://naver.me/xt4Rs8Uq", "hours": "", "subcategory": "베이커리", "note": "신규 오픈"},
    {"id": 51, "category": "cafe", "name": "슬담", "feature": "50년 한옥 독채카페, 반려동물 가능", "address": "담양읍 선계길 31-6", "area": "eup", "url": "https://naver.me/xQe43RL1", "hours": "11:00~19:00(주말~20시), 수 휴무", "subcategory": "한옥카페", "note": "별채 대관 가능"},

    {"id": 52, "category": "restaurant", "name": "삼거리농원", "feature": "솥뚜껑 닭볶음탕, 토종닭 장작불", "address": "봉산면 면앙정로 155", "area": "bongsan", "url": "https://naver.me/xf5MUIbe", "hours": "11:00~21:00(BT 15~17시), 월 휴무", "subcategory": "닭볶음탕", "note": "예약 필수, 숙소 근처!"},
    {"id": 48, "category": "restaurant", "name": "담양앞집 떡갈비국수", "feature": "한우 숯불 떡갈비, 매운떡갈비국수, 3시간 육수", "address": "담양읍 죽향문화로 22", "area": "eup", "url": "https://naver.me/xbA5yrEt", "hours": "11:00~21:00(BT 13~17시), 화 휴무", "subcategory": "국수", "note": "넓은 주차장, 룸/아기의자"},
    {"id": 49, "category": "restaurant", "name": "뚝방국수", "feature": "멸치국수 5천원, 열무비빔국수, 가성비", "address": "담양읍 천변5길 20", "area": "eup_river", "url": "https://naver.me/xKERZbub", "hours": "09:30~20:00, 연중무휴", "subcategory": "국수", "note": "영산강변 산책 적합"},
    {"id": 37, "category": "restaurant", "name": "황금소나무", "feature": "깔끔한 떡갈비 정식", "address": "담양읍 천변5길 54-4", "area": "eup_river", "url": "https://www.diningcode.com/profile.php?rid=3mm8ZKI4G1b1", "hours": "11:30~20:30(월 휴무)", "subcategory": "떡갈비"},
    {"id": 38, "category": "restaurant", "name": "창평국밥", "feature": "막창전골/국밥 맛집, 웨이팅", "address": "창평면 사동길 12-12", "area": "changpyeong", "url": "https://app.catchtable.co.kr/ct/shop/changpyeong", "hours": "09:00~21:00(화 휴무)", "subcategory": "국밥"},
    {"id": 40, "category": "restaurant", "name": "취향루", "feature": "현지인 추천 중식 (짬뽕)", "address": "무정면 오례리", "area": "mujeong", "url": "https://www.diningcode.com/profile.php?rid=uZn72XjNuBYR", "hours": "11:00~21:00(월 휴무)", "subcategory": "중식"},
    {"id": 41, "category": "restaurant", "name": "보라반점", "feature": "굴짬뽕 계절메뉴", "address": "담양읍 담주리", "area": "eup", "url": "https://www.diningcode.com/profile.php?rid=ZJOfe1fARHMu", "hours": "09:00~19:30(일 휴무)", "subcategory": "중식"},
    {"id": 43, "category": "activity", "name": "다와", "feature": "아기자기한 소품샵", "address": "담양읍", "area": "eup", "url": "https://www.instagram.com/dawadamyang/", "hours": "", "subcategory": "소품샵", "note": "읍내 집중, 인스타 휴무 확인"},
    {"id": 44, "category": "activity", "name": "선나나상점", "feature": "유명 소품샵, 캐릭터 굿즈", "address": "담양읍 객사4길 37-1", "area": "eup", "url": "https://www.instagram.com/s_n_n_store/", "hours": "12:00~18:00(월,화 휴무)", "subcategory": "소품샵", "note": "읍내 집중"},
    {"id": 45, "category": "activity", "name": "지피바이브", "feature": "감각적인 편집샵", "address": "담양읍 객사리", "area": "eup", "url": "https://m.blog.naver.com/mirmkt/223860676776", "hours": "", "subcategory": "소품샵", "note": "읍내 집중"},
    {"id": 46, "category": "activity", "name": "그라니타", "feature": "카페+소품, 고양이 3마리", "address": "대전면 신룡길 102-7", "area": "daejeon", "url": "https://www.instagram.com/granita_cafe_damyang", "hours": "11:00~19:00(월 휴무)", "subcategory": "카페소품"}
  ]
}
